[
   {
      "lat" : "11.637222222",
      "name" : "Andaman & Nicobar",
      "long" : "92.728055556",
      "id" : "1"
   },
   {
      "lat" : "30.718333333",
      "name" : "Chandigarh",
      "long" : "76.789444444",
      "id" : "6"
   },
   {
      "lat" : "28.613333333",
      "name" : "Delhi",
      "long" : "77.209166667",
      "id" : "9"
   },
   {
      "lat" : "20.716944444",
      "name" : "Diu",
      "long" : "70.934722222",
      "id" : "8"
   },
   {
      "lat" : "15.402777778",
      "name" : "Goa",
      "long" : "74.003611111",
      "id" : "10"
   },
   {
      "lat" : "22.545555556",
      "name" : "Gujarat",
      "long" : "71.482777778",
      "id" : "11"
   },
   {
      "lat" : "29.307777778",
      "name" : "Haryana",
      "long" : "76.338611111",
      "id" : "12"
   },
   {
      "lat" : "31.963888889",
      "name" : "Himachal Pradesh",
      "long" : "77.111666667",
      "id" : "13"
   },
   {
      "lat" : "34.564444444",
      "name" : "Jammu & Kashmir",
      "long" : "76.125833333",
      "id" : "14"
   },
   {
      "lat" : "15.271944444",
      "name" : "Karnataka",
      "long" : "76.386111111",
      "id" : "15"
   },
   {
      "lat" : "10.518055556",
      "name" : "Kerala",
      "long" : "76.220833333",
      "id" : "16"
   },
   {
      "lat" : "10.566666667",
      "name" : "Lakshadweep",
      "long" : "72.638055556",
      "id" : "17"
   },
   {
      "lat" : "23.482500000",
      "name" : "Madhya Pradesh",
      "long" : "77.740277778",
      "id" : "21"
   },
   {
      "lat" : "18.849722222",
      "name" : "Maharashtra",
      "long" : "76.528888889",
      "id" : "20"
   },
   {
      "lat" : "20.123055556",
      "name" : "Orissa",
      "long" : "84.371388889",
      "id" : "24"
   },
   {
      "lat" : "11.936944444",
      "name" : "Pondicherry",
      "long" : "79.801388889",
      "id" : "25"
   },
   {
      "lat" : "31.140833333",
      "name" : "Punjab",
      "long" : "75.456666667",
      "id" : "26"
   },
   {
      "lat" : "26.647777778",
      "name" : "Rajasthan",
      "long" : "74.032500000",
      "id" : "27"
   },
   {
      "lat" : "27.525277778",
      "name" : "Sikkim",
      "long" : "88.540000000",
      "id" : "28"
   },
   {
      "lat" : "10.834722222",
      "name" : "Tamil Nadu",
      "long" : "78.701666667",
      "id" : "29"
   },
   {
      "lat" : "27.573611111",
      "name" : "Uttar Pradesh",
      "long" : "80.674166667",
      "id" : "31"
   },
   {
      "lat" : "30.055833333",
      "name" : "Uttaranchal",
      "long" : "79.289166667",
      "id" : "35"
   },
   {
      "lat" : "24.467500000",
      "name" : "West Bengal",
      "long" : "88.076666667",
      "id" : "32"
   }
]
